{
    "Biggest": [
        {
            "station": "Ahmsen",
            "recordTime": "2018-07-16T17:15",
            "lat": 52.09100357026102,
            "lon": 8.701493951430361,
            "score": 69
        },
        {
            "station": "Albersloh",
            "recordTime": "2018-07-16T17:15",
            "lat": 51.88391062938489,
            "lon": 7.728152412085806,
            "score": 37
        },
        {
            "station": "Altena",
            "recordTime": "2018-07-16T17:15",
            "lat": 51.28945050111217,
            "lon": 7.67609361098847,
            "score": 85
        },
        {
            "station": "Altenburg_1",
            "recordTime": "2018-07-16T17:15",
            "lat": 50.897341686164175,
            "lon": 6.373552242598635,
            "score": 40
        },
        {
            "station": "Appelhuelsen",
            "recordTime": "2018-07-16T17:15",
            "lat": 51.88547096725793,
            "lon": 7.4455622255381755,
            "score": 22
        },
        {
            "station": "Arloff",
            "recordTime": "2018-07-16T17:15",
            "lat": 50.595525869638124,
            "lon": 6.792256596165651,
            "score": 42
        },
        {
            "station": "Bachum",
            "recordTime": "2018-07-16T17:15",
            "lat": 51.469883582312335,
            "lon": 7.943614557416842,
            "score": 20
        },
        {
            "station": "Baltes",
            "recordTime": "2018-07-16T17:15",
            "lat": 51.13576049590359,
            "lon": 6.291717868003734,
            "score": 14
        },
        {
            "station": "Balve-Garbeck",
            "recordTime": "2018-07-16T17:15",
            "lat": 51.309991500898995,
            "lon": 7.841735323440349,
            "score": 61
        },
        {
            "station": "Beddelhausen",
            "recordTime": "2018-07-16T17:15",
            "lat": 50.99937259359137,
            "lon": 8.487732365601232,
            "score": 88
        },
        {
            "station": "Belecke_1",
            "recordTime": "2018-07-16T17:15",
            "lat": 51.48836467847635,
            "lon": 8.326847734861705,
            "score": 61
        },
        {
            "station": "Bentfeld",
            "recordTime": "2018-07-16T17:15",
            "lat": 51.74883403223376,
            "lon": 8.63052973627998,
            "score": 67
        },
        {
            "station": "Bessenich",
            "recordTime": "2018-07-16T17:15",
            "lat": 50.71789940236043,
            "lon": 6.65531696488936,
            "score": 7
        },
        {
            "station": "Bilk",
            "recordTime": "2018-07-16T17:15",
            "lat": 52.23905277052919,
            "lon": 7.2928234320495084,
            "score": 34
        },
        {
            "station": "Bliesheim",
            "recordTime": "2018-07-16T17:15",
            "lat": 50.77910780341911,
            "lon": 6.825724200426945,
            "score": 82
        },
        {
            "station": "Boekenfoerde_2",
            "recordTime": "2018-07-16T17:15",
            "lat": 51.63569122297246,
            "lon": 8.388652324774531,
            "score": 89
        },
        {
            "station": "Brakel",
            "recordTime": "2018-07-16T17:15",
            "lat": 51.71339341357696,
            "lon": 9.190684163932746,
            "score": 67
        },
        {
            "station": "Bredelar",
            "recordTime": "2018-07-16T17:15",
            "lat": 51.409773657792904,
            "lon": 8.765318803272143,
            "score": 60
        },
        {
            "station": "Broeleck",
            "recordTime": "2018-07-16T17:15",
            "lat": 50.841250454267325,
            "lon": 7.416051646989901,
            "score": 21
        },
        {
            "station": "Bueren",
            "recordTime": "2018-07-16T17:15",
            "lat": 51.549489428625606,
            "lon": 8.56437642157267,
            "score": 27
        },
        {
            "station": "Daemmerwald",
            "recordTime": "2018-07-16T17:15",
            "lat": 51.738466667621104,
            "lon": 6.7650927571108905,
            "score": 77
        },
        {
            "station": "Derschlag",
            "recordTime": "2018-07-16T17:15",
            "lat": 51.00778645754559,
            "lon": 7.626142201334498,
            "score": 31
        },
        {
            "station": "Einen",
            "recordTime": "2018-07-16T17:15",
            "lat": 51.972494196790954,
            "lon": 7.898395084686952,
            "score": 37
        },
        {
            "station": "Eitorf",
            "recordTime": "2018-07-16T17:15",
            "lat": 50.77698149836617,
            "lon": 7.44264951936081,
            "score": 90
        },
        {
            "station": "Erkrath",
            "recordTime": "2018-07-16T17:15",
            "lat": 51.226116783409346,
            "lon": 6.917011657764416,
            "score": 87
        },
        {
            "station": "Eschweiler",
            "recordTime": "2018-07-16T17:15",
            "lat": 50.81470697948823,
            "lon": 6.28863292739942,
            "score": 50
        },
        {
            "station": "Feudingen",
            "recordTime": "2018-07-16T17:15",
            "lat": 50.93876289428183,
            "lon": 8.325079338773046,
            "score": 59
        },
        {
            "station": "Fiestel",
            "recordTime": "2018-07-16T17:15",
            "lat": 52.35325408941963,
            "lon": 8.558631950371243,
            "score": 54
        },
        {
            "station": "Friesheim",
            "recordTime": "2018-07-16T17:15",
            "lat": 50.75517516599674,
            "lon": 6.772883434021707,
            "score": 26
        },
        {
            "station": "Geldern",
            "recordTime": "2018-07-16T17:15",
            "lat": 51.52342526484676,
            "lon": 6.329234430835782,
            "score": 51
        },
        {
            "station": "Gemuend",
            "recordTime": "2018-07-16T17:15",
            "lat": 50.57770817048422,
            "lon": 6.491224240824602,
            "score": 82
        },
        {
            "station": "Glesch",
            "recordTime": "2018-07-16T17:15",
            "lat": 50.974419252048754,
            "lon": 6.595789742253462,
            "score": 47
        },
        {
            "station": "Goch",
            "recordTime": "2018-07-16T17:15",
            "lat": 51.6838984830263,
            "lon": 6.150844763206087,
            "score": 97
        },
        {
            "station": "Greven",
            "recordTime": "2018-07-16T17:15",
            "lat": 52.094195609827786,
            "lon": 7.602723661658877,
            "score": 40
        },
        {
            "station": "Gronau",
            "recordTime": "2018-07-16T17:15",
            "lat": 52.21793685184334,
            "lon": 7.024660046807519,
            "score": 0
        },
        {
            "station": "Hagen-Ambrock",
            "recordTime": "2018-07-16T17:15",
            "lat": 51.32304316299746,
            "lon": 7.516737757800766,
            "score": 12
        },
        {
            "station": "Hagen-Eckesey",
            "recordTime": "2018-07-16T17:15",
            "lat": 51.385206195675394,
            "lon": 7.449826426438786,
            "score": 8
        },
        {
            "station": "Hagen-Haspe",
            "recordTime": "2018-07-16T17:15",
            "lat": 51.34801854667026,
            "lon": 7.418656808709423,
            "score": 89
        },
        {
            "station": "Haltern",
            "recordTime": "2018-07-16T17:15",
            "lat": 51.731079795420854,
            "lon": 7.186580146190712,
            "score": 75
        },
        {
            "station": "Haspertalsperre_Zu",
            "recordTime": "2018-07-16T17:05",
            "lat": 51.29626211596373,
            "lon": 7.43112219826388,
            "score": 83
        },
        {
            "station": "Haus_Langenfeld",
            "recordTime": "2018-07-16T17:15",
            "lat": 51.39064891760809,
            "lon": 6.336416800756676,
            "score": 68
        },
        {
            "station": "Heek",
            "recordTime": "2018-07-16T17:15",
            "lat": 52.11725033010227,
            "lon": 7.116785070980244,
            "score": 33
        },
        {
            "station": "Herbram_W",
            "recordTime": "2018-07-16T17:15",
            "lat": 51.67039503004874,
            "lon": 8.915781659129316,
            "score": 25
        },
        {
            "station": "Herford_2",
            "recordTime": "2018-07-16T17:15",
            "lat": 52.1334218218119,
            "lon": 8.67092388376881,
            "score": 26
        },
        {
            "station": "Herrntrop",
            "recordTime": "2018-07-16T17:15",
            "lat": 51.087456421827035,
            "lon": 8.105472883477946,
            "score": 2
        },
        {
            "station": "Herzogenrath_1",
            "recordTime": "2018-07-16T17:15",
            "lat": 50.86650988463902,
            "lon": 6.094833546479497,
            "score": 62
        },
        {
            "station": "Herzogenrath_2",
            "recordTime": "2018-07-16T17:15",
            "lat": 50.86659342368485,
            "lon": 6.097827541731093,
            "score": 78
        },
        {
            "station": "Hoerstel",
            "recordTime": "2018-07-16T17:15",
            "lat": 52.32029650938614,
            "lon": 7.588070039619119,
            "score": 24
        },
        {
            "station": "Hoffnungsthal",
            "recordTime": "2018-07-16T17:15",
            "lat": 50.910869407106816,
            "lon": 7.193795855807997,
            "score": 52
        },
        {
            "station": "Hommerich",
            "recordTime": "2018-07-16T17:15",
            "lat": 51.00879113678366,
            "lon": 7.280244388459051,
            "score": 87
        },
        {
            "station": "Iserlohn-Hennen",
            "recordTime": "2018-07-16T17:15",
            "lat": 51.448199588149684,
            "lon": 7.662296679364826,
            "score": 27
        },
        {
            "station": "Isselburg",
            "recordTime": "2018-07-16T17:15",
            "lat": 51.832528786699974,
            "lon": 6.471508413442976,
            "score": 42
        },
        {
            "station": "Kall-Sportplatz",
            "recordTime": "2018-07-16T17:15",
            "lat": 50.54492265487833,
            "lon": 6.553791586178765,
            "score": 23
        },
        {
            "station": "Kapellen",
            "recordTime": "2018-07-16T17:15",
            "lat": 51.57001136653752,
            "lon": 6.3597265358509105,
            "score": 2
        },
        {
            "station": "Kesseler_3",
            "recordTime": "2018-07-16T17:15",
            "lat": 51.662974978432736,
            "lon": 8.089384629819186,
            "score": 26
        },
        {
            "station": "Kickenbach",
            "recordTime": "2018-07-16T17:15",
            "lat": 51.108873815451524,
            "lon": 8.100402567077,
            "score": 82
        },
        {
            "station": "Kierspe",
            "recordTime": "2018-07-16T17:15",
            "lat": 51.13989507085166,
            "lon": 7.614919316613703,
            "score": 71
        },
        {
            "station": "Kirchberg1",
            "recordTime": "2018-07-16T17:15",
            "lat": 50.892048843818046,
            "lon": 6.358633361224554,
            "score": 85
        },
        {
            "station": "Kirchberg2",
            "recordTime": "2018-07-16T17:15",
            "lat": 50.8923219124228,
            "lon": 6.359570738052252,
            "score": 81
        },
        {
            "station": "Kluserbruecke",
            "recordTime": "2018-07-16T17:05",
            "lat": 51.255562458675605,
            "lon": 7.158433991774364,
            "score": 88
        },
        {
            "station": "KornelimuensterW",
            "recordTime": "2018-07-16T17:15",
            "lat": 50.72815144082268,
            "lon": 6.183308076855246,
            "score": 50
        },
        {
            "station": "Kreuztal",
            "recordTime": "2018-07-16T17:15",
            "lat": 50.95875529669758,
            "lon": 7.9951595697543905,
            "score": 77
        },
        {
            "station": "Lamersdorf",
            "recordTime": "2018-07-16T17:15",
            "lat": 50.85226123758196,
            "lon": 6.354474407535399,
            "score": 83
        },
        {
            "station": "Langenich",
            "recordTime": "2018-07-16T17:15",
            "lat": 50.864332672535255,
            "lon": 6.67266257759969,
            "score": 34
        },
        {
            "station": "Legden",
            "recordTime": "2018-07-16T17:15",
            "lat": 52.03984441752102,
            "lon": 7.0820707740054285,
            "score": 82
        },
        {
            "station": "Lehen_2",
            "recordTime": "2018-07-16T17:15",
            "lat": 52.261246364946786,
            "lon": 7.739348230263985,
            "score": 9
        },
        {
            "station": "Leven",
            "recordTime": "2018-07-16T17:15",
            "lat": 51.71530265786856,
            "lon": 7.297449676289992,
            "score": 6
        },
        {
            "station": "Liemergrund",
            "recordTime": "2018-07-16T17:05",
            "lat": 52.029734828288916,
            "lon": 8.850229643990811,
            "score": 70
        },
        {
            "station": "Lindemannsheide_Alt",
            "recordTime": "2018-07-16T17:15",
            "lat": 52.054935424271555,
            "lon": 8.766693419182559,
            "score": 50
        },
        {
            "station": "Lindemannsheide_neu",
            "recordTime": "2018-07-16T17:15",
            "lat": 52.05335365076975,
            "lon": 8.771601848511661,
            "score": 80
        },
        {
            "station": "Linnich",
            "recordTime": "2018-07-16T17:15",
            "lat": 50.98071793077164,
            "lon": 6.27492167579102,
            "score": 49
        },
        {
            "station": "Lippstadt-Nordumflut",
            "recordTime": "2018-07-16T17:15",
            "lat": 51.676866753904726,
            "lon": 8.334600034515228,
            "score": 88
        },
        {
            "station": "Loehne",
            "recordTime": "2018-07-16T17:15",
            "lat": 52.19788043134896,
            "lon": 8.710157073484845,
            "score": 64
        },
        {
            "station": "Lohmar",
            "recordTime": "2018-07-16T17:15",
            "lat": 50.84161817423483,
            "lon": 7.201329467301258,
            "score": 50
        },
        {
            "station": "Lutum",
            "recordTime": "2018-07-16T17:15",
            "lat": 51.984190776417776,
            "lon": 7.221780786979506,
            "score": 27
        },
        {
            "station": "Menden_1",
            "recordTime": "2018-07-16T17:15",
            "lat": 50.79789824971024,
            "lon": 7.159144164798521,
            "score": 93
        },
        {
            "station": "Menden_Sauerland",
            "recordTime": "2018-07-16T17:15",
            "lat": 51.44786268104691,
            "lon": 7.7771895836449065,
            "score": 55
        },
        {
            "station": "Meschede",
            "recordTime": "2018-07-16T17:15",
            "lat": 51.34785735079018,
            "lon": 8.280216960298604,
            "score": 81
        },
        {
            "station": "Meschede4",
            "recordTime": "2018-07-16T17:15",
            "lat": 51.34205371276374,
            "lon": 8.2840120427679,
            "score": 29
        },
        {
            "station": "Monschau",
            "recordTime": "2018-07-16T17:15",
            "lat": 50.554351249580634,
            "lon": 6.245886307475074,
            "score": 12
        },
        {
            "station": "Morenhoven",
            "recordTime": "2018-07-16T17:15",
            "lat": 50.66472748623645,
            "lon": 6.952757162527036,
            "score": 73
        },
        {
            "station": "Mueschede",
            "recordTime": "2018-07-16T17:05",
            "lat": 51.40757062854393,
            "lon": 7.991909158241218,
            "score": 19
        },
        {
            "station": "Muesse",
            "recordTime": "2018-07-16T17:15",
            "lat": 51.04952337926774,
            "lon": 8.283966578168009,
            "score": 28
        },
        {
            "station": "Mulartshuette",
            "recordTime": "2018-07-16T17:15",
            "lat": 50.69080690677434,
            "lon": 6.209973805937742,
            "score": 88
        },
        {
            "station": "Neheim3",
            "recordTime": "2018-07-16T17:15",
            "lat": 51.455453076634996,
            "lon": 7.953850154207988,
            "score": 22
        },
        {
            "station": "Neubrueck",
            "recordTime": "2018-07-16T17:15",
            "lat": 51.1321658692252,
            "lon": 6.648826170411586,
            "score": 14
        },
        {
            "station": "Neuhaus1",
            "recordTime": "2018-07-16T17:15",
            "lat": 51.74489050522534,
            "lon": 8.731242898178847,
            "score": 23
        },
        {
            "station": "Neuhaus2",
            "recordTime": "2018-07-16T17:15",
            "lat": 51.73412967547353,
            "lon": 8.70935362987391,
            "score": 24
        },
        {
            "station": "Niederdielfen",
            "recordTime": "2018-07-16T17:15",
            "lat": 50.863177508191505,
            "lon": 8.080101558796306,
            "score": 42
        },
        {
            "station": "Niederschelden",
            "recordTime": "2018-07-16T17:15",
            "lat": 50.845106196956465,
            "lon": 7.966736876101265,
            "score": 26
        },
        {
            "station": "Nordborchen",
            "recordTime": "2018-07-16T17:15",
            "lat": 51.663379871082114,
            "lon": 8.718336967409213,
            "score": 2
        },
        {
            "station": "Oberahle",
            "recordTime": "2018-07-16T17:15",
            "lat": 52.18868652355258,
            "lon": 8.514272211948901,
            "score": 28
        },
        {
            "station": "Oedt",
            "recordTime": "2018-07-16T17:15",
            "lat": 51.321831677145134,
            "lon": 6.372072484276888,
            "score": 73
        },
        {
            "station": "Oeventrop",
            "recordTime": "2018-07-16T17:15",
            "lat": 51.398053091662,
            "lon": 8.13063547254622,
            "score": 42
        },
        {
            "station": "Olfen-Fuecht.Muehle",
            "recordTime": "2018-07-16T17:15",
            "lat": 51.721551891670174,
            "lon": 7.350364801648616,
            "score": 18
        },
        {
            "station": "Olsberg",
            "recordTime": "2018-07-16T17:15",
            "lat": 51.351404645845484,
            "lon": 8.488023991800489,
            "score": 46
        },
        {
            "station": "Opladen",
            "recordTime": "2018-07-16T17:15",
            "lat": 51.07021472883297,
            "lon": 6.994166199329365,
            "score": 23
        },
        {
            "station": "Ottbergen",
            "recordTime": "2018-07-16T17:15",
            "lat": 51.708432579937806,
            "lon": 9.321569099546378,
            "score": 90
        },
        {
            "station": "Overhagen",
            "recordTime": "2018-07-16T17:15",
            "lat": 51.64818745578725,
            "lon": 8.327402885243247,
            "score": 9
        },
        {
            "station": "Paderborn1",
            "recordTime": "2018-07-16T17:10",
            "lat": 51.72248072735415,
            "lon": 8.750152726314955,
            "score": 87
        },
        {
            "station": "Paderborn2",
            "recordTime": "2018-07-16T17:15",
            "lat": 51.72690069646725,
            "lon": 8.744206605801049,
            "score": 18
        },
        {
            "station": "Patzlar",
            "recordTime": "2018-07-16T17:15",
            "lat": 51.76065152522048,
            "lon": 7.456373925140231,
            "score": 46
        },
        {
            "station": "Pottenhausen",
            "recordTime": "2018-07-16T17:05",
            "lat": 52.01660051521084,
            "lon": 8.750310002678265,
            "score": 20
        },
        {
            "station": "Randerath",
            "recordTime": "2018-07-16T17:15",
            "lat": 51.01508472782514,
            "lon": 6.179779054775786,
            "score": 68
        },
        {
            "station": "Raumland",
            "recordTime": "2018-07-16T17:15",
            "lat": 51.031445810847934,
            "lon": 8.386268577241303,
            "score": 59
        },
        {
            "station": "Rheda",
            "recordTime": "2018-07-16T17:15",
            "lat": 51.85249782181493,
            "lon": 8.296121658000787,
            "score": 30
        },
        {
            "station": "Rhedebruegge",
            "recordTime": "2018-07-16T17:15",
            "lat": 51.82770016612945,
            "lon": 6.752201160275625,
            "score": 1
        },
        {
            "station": "Rodenbeck",
            "recordTime": "2018-07-16T17:15",
            "lat": 52.28222664208751,
            "lon": 8.878243231158327,
            "score": 82
        },
        {
            "station": "Roenkhausen",
            "recordTime": "2018-07-16T17:15",
            "lat": 51.21624624830273,
            "lon": 7.9545845687630665,
            "score": 74
        },
        {
            "station": "Roxeler",
            "recordTime": "2018-07-16T17:15",
            "lat": 51.95372540775891,
            "lon": 7.562811402633493,
            "score": 28
        },
        {
            "station": "Rustenhof",
            "recordTime": "2018-07-16T17:15",
            "lat": 51.706484758393806,
            "lon": 9.134561325454818,
            "score": 12
        },
        {
            "station": "Schermbeck_1",
            "recordTime": "2018-07-16T17:15",
            "lat": 51.67371784679412,
            "lon": 6.851364082052098,
            "score": 13
        },
        {
            "station": "Schieder",
            "recordTime": "2018-07-16T17:15",
            "lat": 51.91407161958548,
            "lon": 9.144878245335413,
            "score": 65
        },
        {
            "station": "Schieder-Nessenberg",
            "recordTime": "2018-07-16T17:15",
            "lat": 51.91091502577848,
            "lon": 9.130097787505825,
            "score": 20
        },
        {
            "station": "Schieder-Stausee",
            "recordTime": "2018-07-16T17:15",
            "lat": 51.934960222329465,
            "lon": 9.193338295010186,
            "score": 27
        },
        {
            "station": "Schleiden",
            "recordTime": "2018-07-16T17:15",
            "lat": 50.5248186890655,
            "lon": 6.468393094222972,
            "score": 76
        },
        {
            "station": "Schwaney",
            "recordTime": "2018-07-16T17:15",
            "lat": 51.71660752026995,
            "lon": 8.923874393080746,
            "score": 32
        },
        {
            "station": "Selhausen",
            "recordTime": "2018-07-16T17:15",
            "lat": 50.859641103581424,
            "lon": 6.4335690069973355,
            "score": 71
        },
        {
            "station": "Selm-Ondrup",
            "recordTime": "2018-07-16T17:15",
            "lat": 51.707587257154145,
            "lon": 7.49154272987144,
            "score": 35
        },
        {
            "station": "Senden-Schoelling",
            "recordTime": "2018-07-16T17:15",
            "lat": 51.839948538306466,
            "lon": 7.465711323376256,
            "score": 97
        },
        {
            "station": "Siegburg_Kald.",
            "recordTime": "2018-07-16T17:15",
            "lat": 50.79765012752064,
            "lon": 7.257142394414824,
            "score": 8
        },
        {
            "station": "Stadtlohn Schanzring",
            "recordTime": "2018-07-16T17:15",
            "lat": 51.9947668279101,
            "lon": 6.910345242847805,
            "score": 42
        },
        {
            "station": "Stah",
            "recordTime": "2018-07-16T17:15",
            "lat": 51.097892715984244,
            "lon": 6.104515159092543,
            "score": 21
        },
        {
            "station": "Steinhorst",
            "recordTime": "2018-07-16T17:15",
            "lat": 51.81831692409682,
            "lon": 8.53375943295241,
            "score": 51
        },
        {
            "station": "Stephansohl",
            "recordTime": "2018-07-16T17:15",
            "lat": 51.222982936689874,
            "lon": 7.565210769857195,
            "score": 87
        },
        {
            "station": "Sueddinker",
            "recordTime": "2018-07-16T17:15",
            "lat": 51.631427652713086,
            "lon": 7.932005892058633,
            "score": 99
        },
        {
            "station": "Suesterseel",
            "recordTime": "2018-07-16T17:15",
            "lat": 50.99654286407106,
            "lon": 5.930061537957682,
            "score": 13
        },
        {
            "station": "Veert",
            "recordTime": "2018-07-16T17:15",
            "lat": 51.51881931053212,
            "lon": 6.3099125968864325,
            "score": 27
        },
        {
            "station": "Versmold_W",
            "recordTime": "2018-07-16T17:15",
            "lat": 52.011978679466026,
            "lon": 8.16075135758032,
            "score": 45
        },
        {
            "station": "Villigst",
            "recordTime": "2018-07-16T17:15",
            "lat": 51.435986288455815,
            "lon": 7.581091579641015,
            "score": 36
        },
        {
            "station": "Weeze",
            "recordTime": "2018-07-16T17:15",
            "lat": 51.62629809535388,
            "lon": 6.212519352429427,
            "score": 47
        },
        {
            "station": "Weidenau",
            "recordTime": "2018-07-16T17:15",
            "lat": 50.89401972028442,
            "lon": 8.026442196204307,
            "score": 16
        },
        {
            "station": "Weidenau2",
            "recordTime": "2018-07-16T17:15",
            "lat": 50.89566515337991,
            "lon": 8.023180006627584,
            "score": 40
        },
        {
            "station": "Weilerswist",
            "recordTime": "2018-07-16T17:15",
            "lat": 50.766056189741995,
            "lon": 6.846014097823572,
            "score": 83
        },
        {
            "station": "Weine",
            "recordTime": "2018-07-16T17:15",
            "lat": 51.54201122292654,
            "lon": 8.525701445715443,
            "score": 39
        },
        {
            "station": "Welda",
            "recordTime": "2018-07-16T17:15",
            "lat": 51.45364307118869,
            "lon": 9.115452490337306,
            "score": 44
        },
        {
            "station": "Wenholthausen",
            "recordTime": "2018-07-16T17:15",
            "lat": 51.29427090643478,
            "lon": 8.174921593502372,
            "score": 11
        },
        {
            "station": "Westheim",
            "recordTime": "2018-07-16T17:15",
            "lat": 51.49236903640815,
            "lon": 8.914107916562989,
            "score": 59
        },
        {
            "station": "Westtuennen",
            "recordTime": "2018-07-16T17:15",
            "lat": 51.666326798070344,
            "lon": 7.8669401535767065,
            "score": 85
        },
        {
            "station": "Wetter_Wengern_1",
            "recordTime": "2018-07-16T17:05",
            "lat": 51.400867632588664,
            "lon": 7.341831421633536,
            "score": 85
        },
        {
            "station": "Wettringen_B70",
            "recordTime": "2018-07-16T17:15",
            "lat": 52.21494000245228,
            "lon": 7.323742161666137,
            "score": 78
        },
        {
            "station": "Wolbeck",
            "recordTime": "2018-07-16T17:15",
            "lat": 51.90298964179641,
            "lon": 7.781571019217169,
            "score": 12
        },
        {
            "station": "Ahlen",
            "recordTime": "2018-07-16T17:15",
            "lat": 51.74471298085715,
            "lon": 7.918965328368297,
            "score": 55
        },
        {
            "station": "Glueder",
            "recordTime": "2018-07-16T17:15",
            "lat": 51.1340937501414,
            "lon": 7.121833056627191,
            "score": 56
        },
        {
            "station": "Juelich-Stadion",
            "recordTime": "2018-07-16T17:30",
            "lat": 50.92489973574916,
            "lon": 6.349229667648784,
            "score": 24
        },
        {
            "station": "Lippstadt_1",
            "recordTime": "2018-07-16T18:00",
            "lat": 51.673926427436086,
            "lon": 8.336176086017744,
            "score": 75
        },
        {
            "station": "Neuhof",
            "recordTime": "2018-07-16T17:15",
            "lat": 50.383099019113565,
            "lon": 6.7485129563768735,
            "score": 42
        },
        {
            "station": "Niederpleis",
            "recordTime": "2018-07-16T17:15",
            "lat": 50.77350517074486,
            "lon": 7.2157162643766135,
            "score": 38
        },
        {
            "station": "Vossheide",
            "recordTime": "2018-07-16T17:45",
            "lat": 52.016210835971464,
            "lon": 8.959621566600187,
            "score": 89
        },
        {
            "station": "Zerkall",
            "recordTime": "2018-07-16T17:45",
            "lat": 50.69271598154994,
            "lon": 6.452309287742176,
            "score": 30
        },
        {
            "station": "Altena_Rahmedestrasse",
            "recordTime": "2018-07-16T17:15",
            "lat": 51.28622394885558,
            "lon": 7.677046823637043,
            "score": 96
        },
        {
            "station": "Altenbeken2",
            "recordTime": "2018-07-16T17:15",
            "lat": 51.76111998569744,
            "lon": 8.918264557884266,
            "score": 90
        },
        {
            "station": "Ammeloe",
            "recordTime": "2018-07-16T17:15",
            "lat": 52.080996363541836,
            "lon": 6.77442031984512,
            "score": 97
        },
        {
            "station": "Gescher",
            "recordTime": "2018-07-16T17:15",
            "lat": 51.93854013088848,
            "lon": 7.072268486294831,
            "score": 96
        },
        {
            "station": "Hemer-Becke",
            "recordTime": "2018-07-16T17:05",
            "lat": 51.40069772593458,
            "lon": 7.788410487797381,
            "score": 34
        },
        {
            "station": "Iserlohn",
            "recordTime": "2018-07-16T17:15",
            "lat": 51.400926219842646,
            "lon": 7.700623420757781,
            "score": 61
        },
        {
            "station": "Morsbach",
            "recordTime": "2018-07-16T17:15",
            "lat": 50.861294345759795,
            "lon": 7.740662147878297,
            "score": 67
        },
        {
            "station": "Neuhaus3",
            "recordTime": "2018-07-16T17:15",
            "lat": 51.76581793140484,
            "lon": 8.717830331258014,
            "score": 2
        },
        {
            "station": "Ratingen",
            "recordTime": "2018-07-16T17:15",
            "lat": 51.30381184147741,
            "lon": 6.8120744676674185,
            "score": 13
        },
        {
            "station": "Stadtlohn",
            "recordTime": "2018-07-16T18:00",
            "lat": 51.995671381768396,
            "lon": 6.905583254598165,
            "score": 18
        },
        {
            "station": "Upsprunge",
            "recordTime": "2018-07-16T17:15",
            "lat": 51.65650797746167,
            "lon": 8.602455265069997,
            "score": 41
        },
        {
            "station": "Avenwedde",
            "recordTime": "2018-07-16T17:10",
            "lat": 51.910486475651304,
            "lon": 8.496737602221808,
            "score": 3
        },
        {
            "station": "Darfeld",
            "recordTime": "2018-07-16T17:15",
            "lat": 52.05652143379028,
            "lon": 7.266986832867532,
            "score": 7
        },
        {
            "station": "Espeln",
            "recordTime": "2018-07-16T17:15",
            "lat": 51.83074493002276,
            "lon": 8.595002191525383,
            "score": 28
        },
        {
            "station": "Havert",
            "recordTime": "2018-07-16T17:15",
            "lat": 51.03571358482131,
            "lon": 5.909481587329099,
            "score": 8
        },
        {
            "station": "Moeschemer-Muehle",
            "recordTime": "2018-07-16T17:15",
            "lat": 50.57155800586501,
            "lon": 6.760356572447533,
            "score": 47
        },
        {
            "station": "Multhaeupter Hammer",
            "recordTime": "2018-07-16T17:10",
            "lat": 51.49051900058898,
            "lon": 8.593746017510478,
            "score": 5
        },
        {
            "station": "RurbergVA",
            "recordTime": "2018-07-16T17:15",
            "lat": 50.61548711091825,
            "lon": 6.353918481607874,
            "score": 80
        },
        {
            "station": "Broel",
            "recordTime": "2018-07-16T17:15",
            "lat": 50.78604357629063,
            "lon": 7.319941474880337,
            "score": 24
        },
        {
            "station": "Geisbach",
            "recordTime": "2018-07-16T17:15",
            "lat": 50.76584417340975,
            "lon": 7.30010250049604,
            "score": 83
        },
        {
            "station": "Haaren",
            "recordTime": "2018-07-16T17:15",
            "lat": 50.794915089117296,
            "lon": 6.129209586657456,
            "score": 36
        },
        {
            "station": "Honsdorf",
            "recordTime": "2018-07-16T17:15",
            "lat": 51.00476853348884,
            "lon": 6.181673912503352,
            "score": 7
        },
        {
            "station": "Lippspringe1",
            "recordTime": "2018-07-16T17:15",
            "lat": 51.78050601919228,
            "lon": 8.821470420264854,
            "score": 14
        },
        {
            "station": "Marienfeld_W",
            "recordTime": "2018-07-16T17:15",
            "lat": 51.948373086560785,
            "lon": 8.255409218579683,
            "score": 98
        },
        {
            "station": "Balve_Helle",
            "recordTime": "2018-07-16T17:15",
            "lat": 51.344782170204496,
            "lon": 7.878606885977582,
            "score": 38
        },
        {
            "station": "Bierde",
            "recordTime": "2018-07-16T17:15",
            "lat": 52.370181699966274,
            "lon": 9.041875458404215,
            "score": 24
        },
        {
            "station": "Brake",
            "recordTime": "2018-07-16T18:00",
            "lat": 52.07052554543447,
            "lon": 8.618441039931712,
            "score": 58
        },
        {
            "station": "Burg_Veynau",
            "recordTime": "2018-07-16T17:15",
            "lat": 50.63802835099924,
            "lon": 6.718260273076937,
            "score": 26
        },
        {
            "station": "Cappel",
            "recordTime": "2018-07-16T17:15",
            "lat": 51.695206673396086,
            "lon": 8.297045243902875,
            "score": 48
        },
        {
            "station": "Essen-Hespertal",
            "recordTime": "2018-07-16T17:30",
            "lat": 51.36824182191576,
            "lon": 7.0439517635373,
            "score": 56
        },
        {
            "station": "Hagen-Maecking2",
            "recordTime": "2018-07-16T17:15",
            "lat": 51.3211728378913,
            "lon": 7.48166547750329,
            "score": 79
        },
        {
            "station": "Hemer_Hessufer",
            "recordTime": "2018-07-16T17:15",
            "lat": 51.37986915287127,
            "lon": 7.764934653425764,
            "score": 21
        },
        {
            "station": "Hemer_Uhlenhof",
            "recordTime": "2018-07-16T17:15",
            "lat": 51.38074609306151,
            "lon": 7.769653095432779,
            "score": 20
        },
        {
            "station": "Hilden_1",
            "recordTime": "2018-07-16T17:15",
            "lat": 51.15967223178529,
            "lon": 6.924554663581825,
            "score": 55
        },
        {
            "station": "Hopsten",
            "recordTime": "2018-07-16T17:15",
            "lat": 52.37360689768141,
            "lon": 7.599576842451836,
            "score": 3
        },
        {
            "station": "Blomberg",
            "recordTime": "2018-07-16T17:15",
            "lat": 51.9248306100459,
            "lon": 9.105794388862297,
            "score": 61
        }
    ],
    "8hours": [
        {
            "station": "Ahlen",
            "recordTime": "2018-07-16T11:15",
            "lat": 51.74471298085715,
            "lon": 7.918965328368297,
            "score": 93
        },
        {
            "station": "Ahmsen",
            "recordTime": "2018-07-16T11:30",
            "lat": 52.09100357026102,
            "lon": 8.701493951430361,
            "score": 24
        },
        {
            "station": "Albersloh",
            "recordTime": "2018-07-16T11:30",
            "lat": 51.88391062938489,
            "lon": 7.728152412085806,
            "score": 52
        },
        {
            "station": "Altena",
            "recordTime": "2018-07-16T11:45",
            "lat": 51.28945050111217,
            "lon": 7.67609361098847,
            "score": 82
        },
        {
            "station": "Altena_Rahmedestrasse",
            "recordTime": "2018-07-16T11:15",
            "lat": 51.28622394885558,
            "lon": 7.677046823637043,
            "score": 71
        },
        {
            "station": "Altenbeken2",
            "recordTime": "2018-07-16T11:15",
            "lat": 51.76111998569744,
            "lon": 8.918264557884266,
            "score": 6
        },
        {
            "station": "Altenburg_1",
            "recordTime": "2018-07-16T11:30",
            "lat": 50.897341686164175,
            "lon": 6.373552242598635,
            "score": 15
        },
        {
            "station": "Ammeloe",
            "recordTime": "2018-07-16T11:15",
            "lat": 52.080996363541836,
            "lon": 6.77442031984512,
            "score": 9
        },
        {
            "station": "Appelhuelsen",
            "recordTime": "2018-07-16T11:30",
            "lat": 51.88547096725793,
            "lon": 7.4455622255381755,
            "score": 15
        },
        {
            "station": "Arloff",
            "recordTime": "2018-07-16T11:45",
            "lat": 50.595525869638124,
            "lon": 6.792256596165651,
            "score": 20
        },
        {
            "station": "Avenwedde",
            "recordTime": "2018-07-16T09:00",
            "lat": 51.910486475651304,
            "lon": 8.496737602221808,
            "score": 31
        },
        {
            "station": "Bachum",
            "recordTime": "2018-07-16T11:30",
            "lat": 51.469883582312335,
            "lon": 7.943614557416842,
            "score": 88
        },
        {
            "station": "Baltes",
            "recordTime": "2018-07-16T11:30",
            "lat": 51.13576049590359,
            "lon": 6.291717868003734,
            "score": 65
        },
        {
            "station": "Balve-Garbeck",
            "recordTime": "2018-07-16T11:15",
            "lat": 51.309991500898995,
            "lon": 7.841735323440349,
            "score": 41
        },
        {
            "station": "Balve_Helle",
            "recordTime": "2018-07-16T10:00",
            "lat": 51.344782170204496,
            "lon": 7.878606885977582,
            "score": 77
        },
        {
            "station": "Beddelhausen",
            "recordTime": "2018-07-16T11:30",
            "lat": 50.99937259359137,
            "lon": 8.487732365601232,
            "score": 84
        },
        {
            "station": "Belecke_1",
            "recordTime": "2018-07-16T11:30",
            "lat": 51.48836467847635,
            "lon": 8.326847734861705,
            "score": 79
        },
        {
            "station": "Bentfeld",
            "recordTime": "2018-07-16T11:30",
            "lat": 51.74883403223376,
            "lon": 8.63052973627998,
            "score": 67
        },
        {
            "station": "Bessenich",
            "recordTime": "2018-07-16T11:30",
            "lat": 50.71789940236043,
            "lon": 6.65531696488936,
            "score": 80
        },
        {
            "station": "Bierde",
            "recordTime": "2018-07-16T10:30",
            "lat": 52.370181699966274,
            "lon": 9.041875458404215,
            "score": 37
        },
        {
            "station": "Bilk",
            "recordTime": "2018-07-16T11:30",
            "lat": 52.23905277052919,
            "lon": 7.2928234320495084,
            "score": 18
        },
        {
            "station": "Bliesheim",
            "recordTime": "2018-07-16T11:30",
            "lat": 50.77910780341911,
            "lon": 6.825724200426945,
            "score": 9
        },
        {
            "station": "Blomberg",
            "recordTime": "2018-07-16T10:30",
            "lat": 51.9248306100459,
            "lon": 9.105794388862297,
            "score": 9
        },
        {
            "station": "Boekenfoerde_2",
            "recordTime": "2018-07-16T11:30",
            "lat": 51.63569122297246,
            "lon": 8.388652324774531,
            "score": 19
        },
        {
            "station": "Brake",
            "recordTime": "2018-07-16T10:30",
            "lat": 52.07052554543447,
            "lon": 8.618441039931712,
            "score": 91
        },
        {
            "station": "Brakel",
            "recordTime": "2018-07-16T11:45",
            "lat": 51.71339341357696,
            "lon": 9.190684163932746,
            "score": 66
        },
        {
            "station": "Bredelar",
            "recordTime": "2018-07-16T11:30",
            "lat": 51.409773657792904,
            "lon": 8.765318803272143,
            "score": 64
        },
        {
            "station": "Broel",
            "recordTime": "2018-07-16T09:15",
            "lat": 50.78604357629063,
            "lon": 7.319941474880337,
            "score": 39
        },
        {
            "station": "Broeleck",
            "recordTime": "2018-07-16T11:30",
            "lat": 50.841250454267325,
            "lon": 7.416051646989901,
            "score": 28
        },
        {
            "station": "Bueren",
            "recordTime": "2018-07-16T11:45",
            "lat": 51.549489428625606,
            "lon": 8.56437642157267,
            "score": 20
        },
        {
            "station": "Burg_Veynau",
            "recordTime": "2018-07-16T11:30",
            "lat": 50.63802835099924,
            "lon": 6.718260273076937,
            "score": 96
        },
        {
            "station": "Cappel",
            "recordTime": "2018-07-16T11:15",
            "lat": 51.695206673396086,
            "lon": 8.297045243902875,
            "score": 38
        },
        {
            "station": "Daemmerwald",
            "recordTime": "2018-07-16T11:45",
            "lat": 51.738466667621104,
            "lon": 6.7650927571108905,
            "score": 4
        },
        {
            "station": "Darfeld",
            "recordTime": "2018-07-16T10:30",
            "lat": 52.05652143379028,
            "lon": 7.266986832867532,
            "score": 54
        },
        {
            "station": "Derschlag",
            "recordTime": "2018-07-16T11:45",
            "lat": 51.00778645754559,
            "lon": 7.626142201334498,
            "score": 22
        },
        {
            "station": "Einen",
            "recordTime": "2018-07-16T11:30",
            "lat": 51.972494196790954,
            "lon": 7.898395084686952,
            "score": 43
        },
        {
            "station": "Eitorf",
            "recordTime": "2018-07-16T11:30",
            "lat": 50.77698149836617,
            "lon": 7.44264951936081,
            "score": 2
        },
        {
            "station": "Erkrath",
            "recordTime": "2018-07-16T11:30",
            "lat": 51.226116783409346,
            "lon": 6.917011657764416,
            "score": 1
        },
        {
            "station": "Eschweiler",
            "recordTime": "2018-07-16T11:30",
            "lat": 50.81470697948823,
            "lon": 6.28863292739942,
            "score": 44
        },
        {
            "station": "Espeln",
            "recordTime": "2018-07-16T10:30",
            "lat": 51.83074493002276,
            "lon": 8.595002191525383,
            "score": 35
        },
        {
            "station": "Essen-Hespertal",
            "recordTime": "2018-07-16T10:30",
            "lat": 51.36824182191576,
            "lon": 7.0439517635373,
            "score": 81
        },
        {
            "station": "Feudingen",
            "recordTime": "2018-07-16T11:30",
            "lat": 50.93876289428183,
            "lon": 8.325079338773046,
            "score": 28
        },
        {
            "station": "Fiestel",
            "recordTime": "2018-07-16T11:30",
            "lat": 52.35325408941963,
            "lon": 8.558631950371243,
            "score": 48
        },
        {
            "station": "Friesheim",
            "recordTime": "2018-07-16T11:30",
            "lat": 50.75517516599674,
            "lon": 6.772883434021707,
            "score": 19
        },
        {
            "station": "Geisbach",
            "recordTime": "2018-07-16T09:15",
            "lat": 50.76584417340975,
            "lon": 7.30010250049604,
            "score": 70
        },
        {
            "station": "Geldern",
            "recordTime": "2018-07-16T11:30",
            "lat": 51.52342526484676,
            "lon": 6.329234430835782,
            "score": 5
        },
        {
            "station": "Gemuend",
            "recordTime": "2018-07-16T11:30",
            "lat": 50.57770817048422,
            "lon": 6.491224240824602,
            "score": 46
        },
        {
            "station": "Gescher",
            "recordTime": "2018-07-16T11:15",
            "lat": 51.93854013088848,
            "lon": 7.072268486294831,
            "score": 45
        },
        {
            "station": "Glesch",
            "recordTime": "2018-07-16T11:30",
            "lat": 50.974419252048754,
            "lon": 6.595789742253462,
            "score": 65
        },
        {
            "station": "Glueder",
            "recordTime": "2018-07-16T11:00",
            "lat": 51.1340937501414,
            "lon": 7.121833056627191,
            "score": 14
        },
        {
            "station": "Goch",
            "recordTime": "2018-07-16T11:30",
            "lat": 51.6838984830263,
            "lon": 6.150844763206087,
            "score": 96
        },
        {
            "station": "Greven",
            "recordTime": "2018-07-16T11:30",
            "lat": 52.094195609827786,
            "lon": 7.602723661658877,
            "score": 56
        },
        {
            "station": "Gronau",
            "recordTime": "2018-07-16T11:30",
            "lat": 52.21793685184334,
            "lon": 7.024660046807519,
            "score": 78
        },
        {
            "station": "Haaren",
            "recordTime": "2018-07-16T09:15",
            "lat": 50.794915089117296,
            "lon": 6.129209586657456,
            "score": 91
        },
        {
            "station": "Hagen-Ambrock",
            "recordTime": "2018-07-16T11:30",
            "lat": 51.32304316299746,
            "lon": 7.516737757800766,
            "score": 50
        },
        {
            "station": "Hagen-Eckesey",
            "recordTime": "2018-07-16T11:30",
            "lat": 51.385206195675394,
            "lon": 7.449826426438786,
            "score": 74
        },
        {
            "station": "Hagen-Haspe",
            "recordTime": "2018-07-16T11:30",
            "lat": 51.34801854667026,
            "lon": 7.418656808709423,
            "score": 45
        },
        {
            "station": "Hagen-Maecking2",
            "recordTime": "2018-07-16T10:30",
            "lat": 51.3211728378913,
            "lon": 7.48166547750329,
            "score": 86
        },
        {
            "station": "Haltern",
            "recordTime": "2018-07-16T11:30",
            "lat": 51.731079795420854,
            "lon": 7.186580146190712,
            "score": 98
        },
        {
            "station": "Haspertalsperre_Zu",
            "recordTime": "2018-07-16T11:25",
            "lat": 51.29626211596373,
            "lon": 7.43112219826388,
            "score": 80
        },
        {
            "station": "Haus_Langenfeld",
            "recordTime": "2018-07-16T11:30",
            "lat": 51.39064891760809,
            "lon": 6.336416800756676,
            "score": 12
        },
        {
            "station": "Havert",
            "recordTime": "2018-07-16T11:15",
            "lat": 51.03571358482131,
            "lon": 5.909481587329099,
            "score": 14
        },
        {
            "station": "Heek",
            "recordTime": "2018-07-16T11:30",
            "lat": 52.11725033010227,
            "lon": 7.116785070980244,
            "score": 90
        },
        {
            "station": "Hemer-Becke",
            "recordTime": "2018-07-16T11:05",
            "lat": 51.40069772593458,
            "lon": 7.788410487797381,
            "score": 10
        },
        {
            "station": "Hemer_Hessufer",
            "recordTime": "2018-07-16T11:00",
            "lat": 51.37986915287127,
            "lon": 7.764934653425764,
            "score": 77
        },
        {
            "station": "Hemer_Uhlenhof",
            "recordTime": "2018-07-16T10:45",
            "lat": 51.38074609306151,
            "lon": 7.769653095432779,
            "score": 11
        },
        {
            "station": "Herbram_W",
            "recordTime": "2018-07-16T11:45",
            "lat": 51.67039503004874,
            "lon": 8.915781659129316,
            "score": 64
        },
        {
            "station": "Herford_2",
            "recordTime": "2018-07-16T11:30",
            "lat": 52.1334218218119,
            "lon": 8.67092388376881,
            "score": 12
        },
        {
            "station": "Herrntrop",
            "recordTime": "2018-07-16T11:30",
            "lat": 51.087456421827035,
            "lon": 8.105472883477946,
            "score": 75
        },
        {
            "station": "Herzogenrath_1",
            "recordTime": "2018-07-16T11:30",
            "lat": 50.86650988463902,
            "lon": 6.094833546479497,
            "score": 11
        },
        {
            "station": "Herzogenrath_2",
            "recordTime": "2018-07-16T11:45",
            "lat": 50.86659342368485,
            "lon": 6.097827541731093,
            "score": 90
        },
        {
            "station": "Hilden_1",
            "recordTime": "2018-07-16T10:45",
            "lat": 51.15967223178529,
            "lon": 6.924554663581825,
            "score": 57
        },
        {
            "station": "Hoerstel",
            "recordTime": "2018-07-16T11:30",
            "lat": 52.32029650938614,
            "lon": 7.588070039619119,
            "score": 4
        },
        {
            "station": "Hoffnungsthal",
            "recordTime": "2018-07-16T11:45",
            "lat": 50.910869407106816,
            "lon": 7.193795855807997,
            "score": 55
        },
        {
            "station": "Hommerich",
            "recordTime": "2018-07-16T11:30",
            "lat": 51.00879113678366,
            "lon": 7.280244388459051,
            "score": 5
        },
        {
            "station": "Honsdorf",
            "recordTime": "2018-07-16T09:15",
            "lat": 51.00476853348884,
            "lon": 6.181673912503352,
            "score": 80
        },
        {
            "station": "Hopsten",
            "recordTime": "2018-07-16T10:30",
            "lat": 52.37360689768141,
            "lon": 7.599576842451836,
            "score": 53
        },
        {
            "station": "Iserlohn",
            "recordTime": "2018-07-16T11:15",
            "lat": 51.400926219842646,
            "lon": 7.700623420757781,
            "score": 10
        },
        {
            "station": "Iserlohn-Hennen",
            "recordTime": "2018-07-16T11:30",
            "lat": 51.448199588149684,
            "lon": 7.662296679364826,
            "score": 71
        },
        {
            "station": "Isselburg",
            "recordTime": "2018-07-16T11:30",
            "lat": 51.832528786699974,
            "lon": 6.471508413442976,
            "score": 28
        },
        {
            "station": "Juelich-Stadion",
            "recordTime": "2018-07-16T11:30",
            "lat": 50.92489973574916,
            "lon": 6.349229667648784,
            "score": 3
        },
        {
            "station": "Kall-Sportplatz",
            "recordTime": "2018-07-16T11:30",
            "lat": 50.54492265487833,
            "lon": 6.553791586178765,
            "score": 23
        },
        {
            "station": "Kapellen",
            "recordTime": "2018-07-16T11:45",
            "lat": 51.57001136653752,
            "lon": 6.3597265358509105,
            "score": 78
        },
        {
            "station": "Kesseler_3",
            "recordTime": "2018-07-16T11:30",
            "lat": 51.662974978432736,
            "lon": 8.089384629819186,
            "score": 69
        },
        {
            "station": "Kickenbach",
            "recordTime": "2018-07-16T11:30",
            "lat": 51.108873815451524,
            "lon": 8.100402567077,
            "score": 63
        },
        {
            "station": "Kierspe",
            "recordTime": "2018-07-16T11:45",
            "lat": 51.13989507085166,
            "lon": 7.614919316613703,
            "score": 88
        },
        {
            "station": "Kirchberg1",
            "recordTime": "2018-07-16T11:30",
            "lat": 50.892048843818046,
            "lon": 6.358633361224554,
            "score": 63
        },
        {
            "station": "Kirchberg2",
            "recordTime": "2018-07-16T11:30",
            "lat": 50.8923219124228,
            "lon": 6.359570738052252,
            "score": 29
        },
        {
            "station": "Kluserbruecke",
            "recordTime": "2018-07-16T11:20",
            "lat": 51.255562458675605,
            "lon": 7.158433991774364,
            "score": 90
        },
        {
            "station": "KornelimuensterW",
            "recordTime": "2018-07-16T11:30",
            "lat": 50.72815144082268,
            "lon": 6.183308076855246,
            "score": 24
        },
        {
            "station": "Kreuztal",
            "recordTime": "2018-07-16T11:30",
            "lat": 50.95875529669758,
            "lon": 7.9951595697543905,
            "score": 67
        },
        {
            "station": "Lamersdorf",
            "recordTime": "2018-07-16T11:30",
            "lat": 50.85226123758196,
            "lon": 6.354474407535399,
            "score": 23
        },
        {
            "station": "Landesgrenze",
            "recordTime": "2018-07-16T10:30",
            "lat": 51.22831576618679,
            "lon": 6.087850734106353,
            "score": 11
        },
        {
            "station": "Langenich",
            "recordTime": "2018-07-16T11:45",
            "lat": 50.864332672535255,
            "lon": 6.67266257759969,
            "score": 9
        },
        {
            "station": "Legden",
            "recordTime": "2018-07-16T11:45",
            "lat": 52.03984441752102,
            "lon": 7.0820707740054285,
            "score": 52
        },
        {
            "station": "Lehen_2",
            "recordTime": "2018-07-16T11:30",
            "lat": 52.261246364946786,
            "lon": 7.739348230263985,
            "score": 70
        },
        {
            "station": "Leven",
            "recordTime": "2018-07-16T11:30",
            "lat": 51.71530265786856,
            "lon": 7.297449676289992,
            "score": 48
        },
        {
            "station": "Liemergrund",
            "recordTime": "2018-07-16T11:20",
            "lat": 52.029734828288916,
            "lon": 8.850229643990811,
            "score": 32
        },
        {
            "station": "Lindemannsheide_Alt",
            "recordTime": "2018-07-16T11:45",
            "lat": 52.054935424271555,
            "lon": 8.766693419182559,
            "score": 7
        },
        {
            "station": "Lindemannsheide_neu",
            "recordTime": "2018-07-16T11:30",
            "lat": 52.05335365076975,
            "lon": 8.771601848511661,
            "score": 80
        },
        {
            "station": "Linnich",
            "recordTime": "2018-07-16T11:30",
            "lat": 50.98071793077164,
            "lon": 6.27492167579102,
            "score": 23
        },
        {
            "station": "Lippspringe1",
            "recordTime": "2018-07-16T09:15",
            "lat": 51.78050601919228,
            "lon": 8.821470420264854,
            "score": 83
        },
        {
            "station": "Lippstadt-Nordumflut",
            "recordTime": "2018-07-16T11:30",
            "lat": 51.676866753904726,
            "lon": 8.334600034515228,
            "score": 41
        },
        {
            "station": "Lippstadt_1",
            "recordTime": "2018-07-16T11:45",
            "lat": 51.673926427436086,
            "lon": 8.336176086017744,
            "score": 36
        },
        {
            "station": "Loehne",
            "recordTime": "2018-07-16T11:30",
            "lat": 52.19788043134896,
            "lon": 8.710157073484845,
            "score": 57
        },
        {
            "station": "Lohmar",
            "recordTime": "2018-07-16T11:30",
            "lat": 50.84161817423483,
            "lon": 7.201329467301258,
            "score": 33
        },
        {
            "station": "Lutum",
            "recordTime": "2018-07-16T11:30",
            "lat": 51.984190776417776,
            "lon": 7.221780786979506,
            "score": 1
        },
        {
            "station": "Manfort",
            "recordTime": "2018-07-16T10:45",
            "lat": 51.03825274570307,
            "lon": 7.007372521743628,
            "score": 97
        },
        {
            "station": "Marienfeld_W",
            "recordTime": "2018-07-16T09:15",
            "lat": 51.948373086560785,
            "lon": 8.255409218579683,
            "score": 63
        },
        {
            "station": "Menden_1",
            "recordTime": "2018-07-16T11:30",
            "lat": 50.79789824971024,
            "lon": 7.159144164798521,
            "score": 14
        },
        {
            "station": "Menden_Oberroedingh",
            "recordTime": "2018-07-16T10:30",
            "lat": 51.39890358306666,
            "lon": 7.84220779277779,
            "score": 80
        },
        {
            "station": "Menden_Sauerland",
            "recordTime": "2018-07-16T11:30",
            "lat": 51.44786268104691,
            "lon": 7.7771895836449065,
            "score": 59
        },
        {
            "station": "Meschede",
            "recordTime": "2018-07-16T11:30",
            "lat": 51.34785735079018,
            "lon": 8.280216960298604,
            "score": 29
        },
        {
            "station": "Meschede4",
            "recordTime": "2018-07-16T11:30",
            "lat": 51.34205371276374,
            "lon": 8.2840120427679,
            "score": 43
        },
        {
            "station": "Moeschemer-Muehle",
            "recordTime": "2018-07-16T10:15",
            "lat": 50.57155800586501,
            "lon": 6.760356572447533,
            "score": 27
        },
        {
            "station": "Molzmuehle",
            "recordTime": "2018-07-16T10:45",
            "lat": 51.161874361491364,
            "lon": 6.273280073653399,
            "score": 56
        },
        {
            "station": "Monschau",
            "recordTime": "2018-07-16T11:30",
            "lat": 50.554351249580634,
            "lon": 6.245886307475074,
            "score": 88
        },
        {
            "station": "Morenhoven",
            "recordTime": "2018-07-16T11:30",
            "lat": 50.66472748623645,
            "lon": 6.952757162527036,
            "score": 37
        },
        {
            "station": "Morsbach",
            "recordTime": "2018-07-16T11:15",
            "lat": 50.861294345759795,
            "lon": 7.740662147878297,
            "score": 37
        },
        {
            "station": "Mueschede",
            "recordTime": "2018-07-16T11:30",
            "lat": 51.40757062854393,
            "lon": 7.991909158241218,
            "score": 24
        },
        {
            "station": "Muesse",
            "recordTime": "2018-07-16T11:30",
            "lat": 51.04952337926774,
            "lon": 8.283966578168009,
            "score": 21
        },
        {
            "station": "Mulartshuette",
            "recordTime": "2018-07-16T11:30",
            "lat": 50.69080690677434,
            "lon": 6.209973805937742,
            "score": 77
        },
        {
            "station": "Multhaeupter Hammer",
            "recordTime": "2018-07-16T09:00",
            "lat": 51.49051900058898,
            "lon": 8.593746017510478,
            "score": 74
        },
        {
            "station": "Neheim3",
            "recordTime": "2018-07-16T11:30",
            "lat": 51.455453076634996,
            "lon": 7.953850154207988,
            "score": 60
        },
        {
            "station": "Neubrueck",
            "recordTime": "2018-07-16T11:30",
            "lat": 51.1321658692252,
            "lon": 6.648826170411586,
            "score": 28
        },
        {
            "station": "Neuhaus1",
            "recordTime": "2018-07-16T11:30",
            "lat": 51.74489050522534,
            "lon": 8.731242898178847,
            "score": 13
        },
        {
            "station": "Neuhaus2",
            "recordTime": "2018-07-16T11:45",
            "lat": 51.73412967547353,
            "lon": 8.70935362987391,
            "score": 36
        },
        {
            "station": "Neuhaus3",
            "recordTime": "2018-07-16T11:15",
            "lat": 51.76581793140484,
            "lon": 8.717830331258014,
            "score": 75
        },
        {
            "station": "Neuhof",
            "recordTime": "2018-07-16T11:15",
            "lat": 50.383099019113565,
            "lon": 6.7485129563768735,
            "score": 91
        },
        {
            "station": "Niederdielfen",
            "recordTime": "2018-07-16T11:30",
            "lat": 50.863177508191505,
            "lon": 8.080101558796306,
            "score": 48
        },
        {
            "station": "Niederntudorf",
            "recordTime": "2018-07-16T10:45",
            "lat": 51.641022101172545,
            "lon": 8.681263495426473,
            "score": 15
        },
        {
            "station": "Niederpleis",
            "recordTime": "2018-07-16T11:15",
            "lat": 50.77350517074486,
            "lon": 7.2157162643766135,
            "score": 48
        },
        {
            "station": "Niederschelden",
            "recordTime": "2018-07-16T11:30",
            "lat": 50.845106196956465,
            "lon": 7.966736876101265,
            "score": 69
        },
        {
            "station": "Nordborchen",
            "recordTime": "2018-07-16T11:30",
            "lat": 51.663379871082114,
            "lon": 8.718336967409213,
            "score": 59
        },
        {
            "station": "Oberahle",
            "recordTime": "2018-07-16T11:30",
            "lat": 52.18868652355258,
            "lon": 8.514272211948901,
            "score": 45
        },
        {
            "station": "Oberkirchen",
            "recordTime": "2018-07-16T11:00",
            "lat": 51.15859952960956,
            "lon": 8.37444417852873,
            "score": 3
        },
        {
            "station": "Oedt",
            "recordTime": "2018-07-16T11:30",
            "lat": 51.321831677145134,
            "lon": 6.372072484276888,
            "score": 0
        },
        {
            "station": "Oeventrop",
            "recordTime": "2018-07-16T11:30",
            "lat": 51.398053091662,
            "lon": 8.13063547254622,
            "score": 34
        },
        {
            "station": "Olfen-Fuecht.Muehle",
            "recordTime": "2018-07-16T11:30",
            "lat": 51.721551891670174,
            "lon": 7.350364801648616,
            "score": 32
        },
        {
            "station": "Olsberg",
            "recordTime": "2018-07-16T11:30",
            "lat": 51.351404645845484,
            "lon": 8.488023991800489,
            "score": 5
        },
        {
            "station": "Opladen",
            "recordTime": "2018-07-16T11:45",
            "lat": 51.07021472883297,
            "lon": 6.994166199329365,
            "score": 6
        },
        {
            "station": "Ottbergen",
            "recordTime": "2018-07-16T11:30",
            "lat": 51.708432579937806,
            "lon": 9.321569099546378,
            "score": 80
        },
        {
            "station": "Overhagen",
            "recordTime": "2018-07-16T11:30",
            "lat": 51.64818745578725,
            "lon": 8.327402885243247,
            "score": 65
        },
        {
            "station": "Paderborn1",
            "recordTime": "2018-07-16T10:15",
            "lat": 51.72248072735415,
            "lon": 8.750152726314955,
            "score": 14
        },
        {
            "station": "Paderborn2",
            "recordTime": "2018-07-16T11:30",
            "lat": 51.72690069646725,
            "lon": 8.744206605801049,
            "score": 20
        },
        {
            "station": "Pannenmuehle",
            "recordTime": "2018-07-16T10:45",
            "lat": 51.19927567201007,
            "lon": 6.2297690990984504,
            "score": 9
        },
        {
            "station": "Patzlar",
            "recordTime": "2018-07-16T11:30",
            "lat": 51.76065152522048,
            "lon": 7.456373925140231,
            "score": 97
        },
        {
            "station": "Pottenhausen",
            "recordTime": "2018-07-16T11:20",
            "lat": 52.01660051521084,
            "lon": 8.750310002678265,
            "score": 14
        },
        {
            "station": "Randerath",
            "recordTime": "2018-07-16T11:30",
            "lat": 51.01508472782514,
            "lon": 6.179779054775786,
            "score": 5
        },
        {
            "station": "Ratingen",
            "recordTime": "2018-07-16T11:15",
            "lat": 51.30381184147741,
            "lon": 6.8120744676674185,
            "score": 14
        },
        {
            "station": "Raumland",
            "recordTime": "2018-07-16T11:30",
            "lat": 51.031445810847934,
            "lon": 8.386268577241303,
            "score": 77
        },
        {
            "station": "Rheda",
            "recordTime": "2018-07-16T11:30",
            "lat": 51.85249782181493,
            "lon": 8.296121658000787,
            "score": 98
        },
        {
            "station": "Rhedebruegge",
            "recordTime": "2018-07-16T11:30",
            "lat": 51.82770016612945,
            "lon": 6.752201160275625,
            "score": 90
        },
        {
            "station": "Rodenbeck",
            "recordTime": "2018-07-16T11:30",
            "lat": 52.28222664208751,
            "lon": 8.878243231158327,
            "score": 85
        },
        {
            "station": "Roenkhausen",
            "recordTime": "2018-07-16T11:30",
            "lat": 51.21624624830273,
            "lon": 7.9545845687630665,
            "score": 24
        },
        {
            "station": "Roxeler",
            "recordTime": "2018-07-16T11:30",
            "lat": 51.95372540775891,
            "lon": 7.562811402633493,
            "score": 54
        },
        {
            "station": "RurbergVA",
            "recordTime": "2018-07-16T10:15",
            "lat": 50.61548711091825,
            "lon": 6.353918481607874,
            "score": 8
        },
        {
            "station": "Rustenhof",
            "recordTime": "2018-07-16T12:15",
            "lat": 51.706484758393806,
            "lon": 9.134561325454818,
            "score": 44
        },
        {
            "station": "Schermbeck_1",
            "recordTime": "2018-07-16T11:30",
            "lat": 51.67371784679412,
            "lon": 6.851364082052098,
            "score": 4
        },
        {
            "station": "Schieder",
            "recordTime": "2018-07-16T11:30",
            "lat": 51.91407161958548,
            "lon": 9.144878245335413,
            "score": 13
        },
        {
            "station": "Schieder-Nessenberg",
            "recordTime": "2018-07-16T11:30",
            "lat": 51.91091502577848,
            "lon": 9.130097787505825,
            "score": 55
        },
        {
            "station": "Schieder-Stausee",
            "recordTime": "2018-07-16T11:30",
            "lat": 51.934960222329465,
            "lon": 9.193338295010186,
            "score": 25
        },
        {
            "station": "Schleiden",
            "recordTime": "2018-07-16T11:30",
            "lat": 50.5248186890655,
            "lon": 6.468393094222972,
            "score": 16
        },
        {
            "station": "Schwaney",
            "recordTime": "2018-07-16T11:30",
            "lat": 51.71660752026995,
            "lon": 8.923874393080746,
            "score": 39
        },
        {
            "station": "Selhausen",
            "recordTime": "2018-07-16T11:30",
            "lat": 50.859641103581424,
            "lon": 6.4335690069973355,
            "score": 12
        },
        {
            "station": "Selm-Ondrup",
            "recordTime": "2018-07-16T11:30",
            "lat": 51.707587257154145,
            "lon": 7.49154272987144,
            "score": 46
        },
        {
            "station": "Senden-Schoelling",
            "recordTime": "2018-07-16T11:30",
            "lat": 51.839948538306466,
            "lon": 7.465711323376256,
            "score": 21
        },
        {
            "station": "Sendenhorst",
            "recordTime": "2018-07-16T10:45",
            "lat": 51.83345809600926,
            "lon": 7.881196679833992,
            "score": 57
        },
        {
            "station": "Siegburg_Kald.",
            "recordTime": "2018-07-16T11:30",
            "lat": 50.79765012752064,
            "lon": 7.257142394414824,
            "score": 68
        },
        {
            "station": "Stadtlohn",
            "recordTime": "2018-07-16T11:30",
            "lat": 51.995671381768396,
            "lon": 6.905583254598165,
            "score": 11
        },
        {
            "station": "Stadtlohn Schanzring",
            "recordTime": "2018-07-16T11:30",
            "lat": 51.9947668279101,
            "lon": 6.910345242847805,
            "score": 98
        },
        {
            "station": "Stah",
            "recordTime": "2018-07-16T11:30",
            "lat": 51.097892715984244,
            "lon": 6.104515159092543,
            "score": 9
        },
        {
            "station": "Steinhorst",
            "recordTime": "2018-07-16T11:30",
            "lat": 51.81831692409682,
            "lon": 8.53375943295241,
            "score": 63
        },
        {
            "station": "Stephansohl",
            "recordTime": "2018-07-16T11:30",
            "lat": 51.222982936689874,
            "lon": 7.565210769857195,
            "score": 33
        },
        {
            "station": "Sueddinker",
            "recordTime": "2018-07-16T11:45",
            "lat": 51.631427652713086,
            "lon": 7.932005892058633,
            "score": 1
        },
        {
            "station": "Suesterseel",
            "recordTime": "2018-07-16T11:45",
            "lat": 50.99654286407106,
            "lon": 5.930061537957682,
            "score": 95
        },
        {
            "station": "Uchtdorf",
            "recordTime": "2018-07-16T10:45",
            "lat": 52.159867395899134,
            "lon": 9.099187612850764,
            "score": 15
        },
        {
            "station": "Upsprunge",
            "recordTime": "2018-07-16T11:15",
            "lat": 51.65650797746167,
            "lon": 8.602455265069997,
            "score": 85
        },
        {
            "station": "Veert",
            "recordTime": "2018-07-16T11:30",
            "lat": 51.51881931053212,
            "lon": 6.3099125968864325,
            "score": 27
        },
        {
            "station": "Versmold_W",
            "recordTime": "2018-07-16T11:30",
            "lat": 52.011978679466026,
            "lon": 8.16075135758032,
            "score": 1
        },
        {
            "station": "Villigst",
            "recordTime": "2018-07-16T11:30",
            "lat": 51.435986288455815,
            "lon": 7.581091579641015,
            "score": 52
        },
        {
            "station": "Vossheide",
            "recordTime": "2018-07-16T11:20",
            "lat": 52.016210835971464,
            "lon": 8.959621566600187,
            "score": 54
        },
        {
            "station": "Vossheide_1",
            "recordTime": "2018-07-16T10:40",
            "lat": 52.010159684097886,
            "lon": 8.958898521876586,
            "score": 79
        },
        {
            "station": "Weeze",
            "recordTime": "2018-07-16T11:30",
            "lat": 51.62629809535388,
            "lon": 6.212519352429427,
            "score": 59
        },
        {
            "station": "Weidenau",
            "recordTime": "2018-07-16T11:30",
            "lat": 50.89401972028442,
            "lon": 8.026442196204307,
            "score": 18
        },
        {
            "station": "Weidenau2",
            "recordTime": "2018-07-16T11:30",
            "lat": 50.89566515337991,
            "lon": 8.023180006627584,
            "score": 24
        },
        {
            "station": "Weilerswist",
            "recordTime": "2018-07-16T11:30",
            "lat": 50.766056189741995,
            "lon": 6.846014097823572,
            "score": 51
        },
        {
            "station": "Weine",
            "recordTime": "2018-07-16T11:30",
            "lat": 51.54201122292654,
            "lon": 8.525701445715443,
            "score": 14
        },
        {
            "station": "Welda",
            "recordTime": "2018-07-16T11:30",
            "lat": 51.45364307118869,
            "lon": 9.115452490337306,
            "score": 70
        },
        {
            "station": "Wenholthausen",
            "recordTime": "2018-07-16T11:30",
            "lat": 51.29427090643478,
            "lon": 8.174921593502372,
            "score": 99
        },
        {
            "station": "Westheim",
            "recordTime": "2018-07-16T11:30",
            "lat": 51.49236903640815,
            "lon": 8.914107916562989,
            "score": 79
        },
        {
            "station": "Westtuennen",
            "recordTime": "2018-07-16T11:30",
            "lat": 51.666326798070344,
            "lon": 7.8669401535767065,
            "score": 24
        },
        {
            "station": "Wetter_Wengern_1",
            "recordTime": "2018-07-16T11:20",
            "lat": 51.400867632588664,
            "lon": 7.341831421633536,
            "score": 52
        },
        {
            "station": "Wettringen_B70",
            "recordTime": "2018-07-16T11:30",
            "lat": 52.21494000245228,
            "lon": 7.323742161666137,
            "score": 21
        },
        {
            "station": "Wolbeck",
            "recordTime": "2018-07-16T11:30",
            "lat": 51.90298964179641,
            "lon": 7.781571019217169,
            "score": 71
        },
        {
            "station": "Zerkall",
            "recordTime": "2018-07-16T11:30",
            "lat": 50.69271598154994,
            "lon": 6.452309287742176,
            "score": 23
        }
    ]
}